[{
  "_id": {
    "$oid": "6460f64ee7b096bc0f50c0f4"
  },
  "titulo": "Shibata Supermercados",
  "origem": {
    "lat": -23.0478832,
    "lng": -45.5772403
  },
  "destino": {
    "lat": -23.02213669999999,
    "lng": -45.5393371,
    "formatted_address": "Av. Bandeirantes, 808 - Jardim Maria Augusta, Taubaté - SP, 12070-100, Brasil",
    "name": "Shibata Supermercados",
    "place_id": "ChIJFa4cHnL5zJQRDLayx4QjO7Y",
    "duration": {
      "text": "11 minutos",
      "value": 636
    },
    "distance": {
      "text": "6,9 km",
      "value": 6861
    }
  },
  "status": "Aguardando",
  "valor": 12,
  "dataLimite": {
    "$date": "2023-05-15T14:54:45.000Z"
  },
  "devolvedor": null,
  "usuario": {
    "$oid": "6431d68e17fb52bbee2f6268"
  },
  "__v": 0
},{
  "_id": {
    "$oid": "6460fb4ee7b096bc0f50c0fa"
  },
  "titulo": "Shibuya",
  "origem": {
    "lat": -23.0478843,
    "lng": -45.5772406
  },
  "destino": {
    "lat": -16.7317202,
    "lng": -49.2621145,
    "formatted_address": "Bloco A - Av. São Paulo, s/n - Vila Brasilia, Goiânia - GO, 74905-971, Brasil",
    "name": "Correios Agência Esmeralda - AC Esmeralda",
    "place_id": "ChIJVfgCZJTwXpMRcK9sCa2MQTo",
    "duration": {
      "text": "12 horas 17 minutos",
      "value": 44223
    },
    "distance": {
      "text": "987 km",
      "value": 986533
    }
  },
  "status": "Em andamento",
  "valor": 884,
  "dataLimite": {
    "$date": "2023-05-14T15:09:33.444Z"
  },
  "devolvedor": {
    "$oid": "6431d14f17fb52bbee2f6243"
  },
  "usuario": {
    "$oid": "6431d68e17fb52bbee2f6268"
  },
  "__v": 0
},{
  "_id": {
    "$oid": "6460fb9de7b096bc0f50c100"
  },
  "titulo": "Teste de titulo",
  "origem": {
    "lat": -23.0478841,
    "lng": -45.5772395
  },
  "destino": {
    "lat": -23.0465718,
    "lng": -45.5817011,
    "formatted_address": "R. Mateus Alves Antunes, 35 - Cidade Jardim, Taubaté - SP, 12091-750, Brasil",
    "name": "Correios",
    "place_id": "ChIJE-JAM5X4zJQRRbG2JNfOq0Y",
    "duration": {
      "text": "2 minutos",
      "value": 107
    },
    "distance": {
      "text": "0,6 km",
      "value": 623
    }
  },
  "status": "Aguardando",
  "valor": 5,
  "dataLimite": {
    "$date": "2023-05-14T15:17:24.493Z"
  },
  "devolvedor": null,
  "usuario": {
    "$oid": "6431d68e17fb52bbee2f6268"
  },
  "__v": 0
},{
  "_id": {
    "$oid": "6460fbbae7b096bc0f50c106"
  },
  "titulo": "Correios",
  "origem": {
    "lat": -23.0478841,
    "lng": -45.5772395
  },
  "destino": {
    "lat": -23.0465718,
    "lng": -45.5817011,
    "formatted_address": "R. Mateus Alves Antunes, 35 - Cidade Jardim, Taubaté - SP, 12091-750, Brasil",
    "name": "Correios",
    "place_id": "ChIJE-JAM5X4zJQRRbG2JNfOq0Y",
    "duration": {
      "text": "2 minutos",
      "value": 107
    },
    "distance": {
      "text": "0,6 km",
      "value": 623
    }
  },
  "status": "Finalizado",
  "valor": 5,
  "dataLimite": {
    "$date": "2023-05-04T15:17:55.000Z"
  },
  "devolvedor": null,
  "usuario": {
    "$oid": "6431d68e17fb52bbee2f6268"
  },
  "__v": 0
},{
  "_id": {
    "$oid": "6460fc9ee7b096bc0f50c10c"
  },
  "titulo": "Carrefour Bairro Taubaté II",
  "origem": {
    "lat": -23.0478847,
    "lng": -45.5772401
  },
  "destino": {
    "lat": -23.0173377,
    "lng": -45.5510683,
    "formatted_address": "Av. Mal. Deodoro da Fonseca, 214 - Centro, Taubaté - SP, 12080-000, Brasil",
    "name": "Carrefour Bairro Taubaté II",
    "place_id": "ChIJJVBKnKf5zJQRGuS_YuzzaQc",
    "duration": {
      "text": "17 minutos",
      "value": 1011
    },
    "distance": {
      "text": "8,8 km",
      "value": 8771
    }
  },
  "status": "Aguardando",
  "valor": 20,
  "dataLimite": {
    "$date": "2023-05-27T15:19:52.000Z"
  },
  "devolvedor": null,
  "usuario": {
    "$oid": "6431d68e17fb52bbee2f6268"
  },
  "__v": 0
},{
  "_id": {
    "$oid": "6460fccee7b096bc0f50c112"
  },
  "titulo": "Taubaté Shopping",
  "origem": {
    "lat": -23.0478841,
    "lng": -45.5772395
  },
  "destino": {
    "lat": -23.0227732,
    "lng": -45.5818951,
    "formatted_address": "Av. Charles Schnneider, 1700 - Vila Costa, Taubaté - SP, 12040-900, Brasil",
    "name": "Taubaté Shopping",
    "place_id": "ChIJmxlwU2f4zJQR_RaiF9CGsCY",
    "duration": {
      "text": "12 minutos",
      "value": 711
    },
    "distance": {
      "text": "4,2 km",
      "value": 4182
    }
  },
  "status": "Aguardando",
  "valor": 14,
  "dataLimite": {
    "$date": "2023-05-30T15:22:28.000Z"
  },
  "devolvedor": null,
  "usuario": {
    "$oid": "6431d68e17fb52bbee2f6268"
  },
  "__v": 0
},{
  "_id": {
    "$oid": "6460fcf4e7b096bc0f50c118"
  },
  "titulo": "Via Vale Garden Shopping",
  "origem": {
    "lat": -23.0478841,
    "lng": -45.5772395
  },
  "destino": {
    "lat": -23.0531345,
    "lng": -45.6047813,
    "formatted_address": "Av. Dom Pedro I, 7181 - Res. Estoril, Taubaté - SP, 12091-000, Brasil",
    "name": "Via Vale Garden Shopping",
    "place_id": "ChIJfxEY-tP7zJQRn_kNsuj2IAY",
    "duration": {
      "text": "7 minutos",
      "value": 431
    },
    "distance": {
      "text": "3,5 km",
      "value": 3452
    }
  },
  "status": "Aguardando",
  "valor": 8,
  "dataLimite": {
    "$date": "2023-05-24T15:22:59.000Z"
  },
  "devolvedor": null,
  "usuario": {
    "$oid": "6431d68e17fb52bbee2f6268"
  },
  "__v": 0
},{
  "_id": {
    "$oid": "646119b8a2003aee82dc9b25"
  },
  "titulo": "Leroy Merlin Taubaté",
  "origem": {
    "lat": -23.0478841,
    "lng": -45.5772395
  },
  "destino": {
    "lat": -23.0163094,
    "lng": -45.5250509,
    "formatted_address": "Av. Dom Pedro I, 7254 - Terra Nova, Taubaté - SP, 12081-810, Brasil",
    "name": "Leroy Merlin Taubaté",
    "place_id": "ChIJH3n0e335zJQRheMyhyQiW6w",
    "duration": {
      "text": "15 minutos",
      "value": 921
    },
    "distance": {
      "text": "9,6 km",
      "value": 9646
    }
  },
  "status": "Em andamento",
  "valor": 18.42,
  "dataLimite": {
    "$date": "2023-05-15T17:25:49.000Z"
  },
  "codigo": "45rf345",
  "largura": 34,
  "altura": 43,
  "comprimento": 3,
  "peso": 433,
  "devolvedor": {
    "$oid": "6431d14f17fb52bbee2f6243"
  },
  "usuario": {
    "$oid": "6431d68e17fb52bbee2f6268"
  },
  "__v": 0
},{
  "_id": {
    "$oid": "64612224a2003aee82dc9b2f"
  },
  "titulo": "Nova Vale Tudo",
  "origem": {
    "lat": -23.047889,
    "lng": -45.5772407
  },
  "destino": {
    "lat": -23.0280299,
    "lng": -45.5549192,
    "formatted_address": "R. Dr. Jorge Winther, 74 - Centro, Taubaté - SP, 12010-150, Brasil",
    "name": "Nova Vale Tudo",
    "place_id": "ChIJBd8QOQX5zJQRtCem0fsBOGs",
    "duration": {
      "text": "11 minutos",
      "value": 641
    },
    "distance": {
      "text": "4,7 km",
      "value": 4660
    }
  },
  "status": "Aguardando",
  "valor": 12.82,
  "dataLimite": {
    "$date": "2023-05-14T18:01:21.107Z"
  },
  "codigo": "3234234",
  "largura": 34,
  "altura": 3,
  "comprimento": 34,
  "peso": 0.57,
  "devolvedor": null,
  "usuario": {
    "$oid": "6431d68e17fb52bbee2f6268"
  },
  "__v": 0
},{
  "_id": {
    "$oid": "64612257a2003aee82dc9b31"
  },
  "titulo": "Leroy",
  "origem": {
    "lat": -23.0478905,
    "lng": -45.5772146
  },
  "destino": {
    "lat": -23.0280299,
    "lng": -45.5549192,
    "formatted_address": "R. Dr. Jorge Winther, 74 - Centro, Taubaté - SP, 12010-150, Brasil",
    "name": "Nova Vale Tudo",
    "place_id": "ChIJBd8QOQX5zJQRtCem0fsBOGs",
    "duration": {
      "text": "11 minutos",
      "value": 641
    },
    "distance": {
      "text": "4,7 km",
      "value": 4660
    }
  },
  "status": "Aguardando",
  "valor": 12.82,
  "dataLimite": {
    "$date": "2023-05-14T18:33:14.372Z"
  },
  "codigo": "234234",
  "largura": 34,
  "altura": 43,
  "comprimento": 3,
  "peso": 43,
  "devolvedor": null,
  "usuario": {
    "$oid": "6431d68e17fb52bbee2f6268"
  },
  "__v": 0
}]